{
"type": "FeatureCollection",
"name": "kot_places",
"crs": { "type": "name", "properties": { "name": "urn:ogc:def:crs:OGC:1.3:CRS84" } },
"xy_coordinate_resolution": 1e-05,
"features": [
{ "type": "Feature", "properties": { "voivodeship": "łódzkie", "localization": "Arkadia k. Łowicza", "name": "Park romantyczny z budowlami", "link1": "https://www.podrozepoeuropie.pl/park-romantyczny-arkadia/", "link2": null }, "geometry": { "type": "Point", "coordinates": [ 20.01428, 52.08495 ] } },
{ "type": "Feature", "properties": { "voivodeship": "podlaskie", "localization": "Augustów", "name": "Kanał Augustowski – zbudowany w latach 1824-1839 zabytek sztuki inżynierskiej", "link1": "http://www.augustow.pl/pl/kanal-augustowski", "link2": null }, "geometry": { "type": "Point", "coordinates": [ 22.99269, 53.84285 ] } },
{ "type": "Feature", "properties": { "voivodeship": "podkarpackie", "localization": "Baranów Sandomierski", "name": "Zamek", "link1": "https://www.baranow.com.pl/", "link2": null }, "geometry": { "type": "Point", "coordinates": [ 21.53564, 50.50193 ] } },
{ "type": "Feature", "properties": { "voivodeship": "małopolskie", "localization": "Binarowa gm. Biecz", "name": "Późnogotycki drewniany kościół parafialny pw. św. Michała Archanioła", "link1": "https://www.parafiabinarowa.pl/", "link2": null }, "geometry": { "type": "Point", "coordinates": [ 21.22747, 49.7573 ] } },
{ "type": "Feature", "properties": { "voivodeship": "kujawsko-pomorskie", "localization": "Biskupin", "name": "Rezerwat archeologiczny", "link1": "https://biskupin.pl/rezerwat-archeologiczny/", "link2": null }, "geometry": { "type": "Point", "coordinates": [ 17.74339, 52.7851 ] } },
{ "type": "Feature", "properties": { "voivodeship": "podkarpackie", "localization": "Blizne gm. Jasienica Rosielna", "name": "Późnogotycki drewniany kościół parafialny", "link1": "https://jasienicarosielna.pl/o-gminie/atrakcje-turystyczne/kosciol-w-bliznem", "link2": null }, "geometry": { "type": "Point", "coordinates": [ 21.97628, 49.75062 ] } },
{ "type": "Feature", "properties": { "voivodeship": "małopolskie", "localization": "Bochnia", "name": "Kopalnia soli", "link1": "https://kopalnia-bochnia.pl/", "link2": null }, "geometry": { "type": "Point", "coordinates": [ 20.41764, 49.96904 ] } },
{ "type": "Feature", "properties": { "voivodeship": "opolskie", "localization": "Brzeg", "name": "Zamek Piastów śląskich", "link1": "https://brzegzamek.pl/", "link2": null }, "geometry": { "type": "Point", "coordinates": [ 17.46673, 50.86369 ] } },
{ "type": "Feature", "properties": { "voivodeship": "łódzkie", "localization": "Boguszyce k. Rawy Mazowieckiej", "name": "Drewniany, późnogotycki kościół pw. św. Stanisława, wzniesiony w 1558 r.", "link1": "http://parafiaboguszyce.pl/", "link2": null }, "geometry": { "type": "Point", "coordinates": [ 20.18815, 51.74847 ] } },
{ "type": "Feature", "properties": { "voivodeship": "lubelskie", "localization": "Chełm", "name": "Popijarski kościół parafialny", "link1": "https://itchelm.pl/zespol-popijarski/", "link2": null }, "geometry": { "type": "Point", "coordinates": [ 23.47208, 51.13249 ] } },
{ "type": "Feature", "properties": { "voivodeship": "kujawsko-pomorskie", "localization": "Chełmno nad Wisłą", "name": "Średniowieczny układ przestrzenny z murami obronnymi i 17 basztami", "link1": "http://moje-chelmno.pl/mury-obronne/baszty", "link2": null }, "geometry": { "type": "Point", "coordinates": [ 18.42316, 53.34933 ] } },
{ "type": "Feature", "properties": { "voivodeship": "śląskie", "localization": "Częstochowa", "name": "Zespół klasztorny paulinów na Jasnej Górze", "link1": "https://jasnagora.pl/", "link2": null }, "geometry": { "type": "Point", "coordinates": [ 19.09701, 50.81261 ] } },
{ "type": "Feature", "properties": { "voivodeship": "małopolskie", "localization": "Dębno Podhalańskie", "name": "Kościół pw. św. Michała Archanioła", "link1": "http://debno.jdm.host/", "link2": null }, "geometry": { "type": "Point", "coordinates": [ 20.21202, 49.46648 ] } },
{ "type": "Feature", "properties": { "voivodeship": "dolnośląskie", "localization": "Duszniki Zdrój", "name": "Młyn papierniczy", "link1": "https://muzeumpapiernictwa.pl/", "link2": null }, "geometry": { "type": "Point", "coordinates": [ 16.39559, 50.40455 ] } },
{ "type": "Feature", "properties": { "voivodeship": "warmińsko-mazurskie", "localization": "Elbląg", "name": "Kanał Elbląski", "link1": "https://www.zegluga.com.pl/", "link2": null }, "geometry": { "type": "Point", "coordinates": [ 19.5841, 54.03253 ] } },
{ "type": "Feature", "properties": { "voivodeship": "warmińsko-mazurskie", "localization": "Frombork", "name": "Zespół zabudowań Wzgórza Kopernika", "link1": "https://frombork.art.pl/pl/wzgorze-katedralne/", "link2": null }, "geometry": { "type": "Point", "coordinates": [ 19.68234, 54.35671 ] } },
{ "type": "Feature", "properties": { "voivodeship": "pomorskie", "localization": "Gdańsk", "name": "Kościół Mariacki", "link1": "https://bazylikamariacka.gdansk.pl/", "link2": null }, "geometry": { "type": "Point", "coordinates": [ 18.6531, 54.3498 ] } },
{ "type": "Feature", "properties": { "voivodeship": "pomorskie", "localization": "Gdańsk", "name": "Zabudowa Głównego Miasta", "link1": "https://pl.wikipedia.org/wiki/G%C5%82%C3%B3wne_Miasto", "link2": null }, "geometry": { "type": "Point", "coordinates": [ 18.654, 54.3483 ] } },
{ "type": "Feature", "properties": { "voivodeship": "pomorskie", "localization": "Gdańsk", "name": "Ratusz Głównego Miasta", "link1": "https://muzeumgdansk.pl/oddzialy-muzeum/ratusz-glownego-miasta/", "link2": "https://pl.wikipedia.org/wiki/Ratusz_G%C5%82%C3%B3wnego_Miasta_w_Gda%C5%84sku" }, "geometry": { "type": "Point", "coordinates": [ 18.65269, 54.34883 ] } },
{ "type": "Feature", "properties": { "voivodeship": "pomorskie", "localization": "Gdańsk", "name": "Zespół Wielkiej Zbrojowni", "link1": "https://pl.wikipedia.org/wiki/Wielka_Zbrojownia_w_Gda%C5%84sku", "link2": "https://zabytek.pl/pl/obiekty/gdansk-wielka-zbrojownia" }, "geometry": { "type": "Point", "coordinates": [ 18.64905, 54.3507 ] } },
{ "type": "Feature", "properties": { "voivodeship": "pomorskie", "localization": "Gdańsk", "name": "Zespół Twierdzy Wisłoujście", "link1": "https://muzeumgdansk.pl/oddzialy-muzeum/twierdza-wisloujscie/", "link2": "https://pl.wikipedia.org/wiki/Twierdza_Wis%C5%82ouj%C5%9Bcie" }, "geometry": { "type": "Point", "coordinates": [ 18.67959, 54.39572 ] } },
{ "type": "Feature", "properties": { "voivodeship": "pomorskie", "localization": "Gdańsk", "name": "Pole bitwy Westerplatte", "link1": "https://pl.wikipedia.org/wiki/Westerplatte", "link2": "https://zabytek.pl/pl/obiekty/gdansk-pole-bitwy-na-westerplatte-111" }, "geometry": { "type": "Point", "coordinates": [ 18.66697, 54.40669 ] } },
{ "type": "Feature", "properties": { "voivodeship": "wielkopolskie", "localization": "Gniezno", "name": "Gotycki kościół archikatedralny Wniebowzięcia NMP z pozostałościami budowli romańskiej", "link1": "https://pl.wikipedia.org/wiki/Bazylika_prymasowska_Wniebowzi%C4%99cia_Naj%C5%9Bwi%C4%99tszej_Maryi_Panny_w_Gnie%C5%BAnie", "link2": "" }, "geometry": { "type": "Point", "coordinates": [ 17.59657, 52.53671 ] } },
{ "type": "Feature", "properties": { "voivodeship": "wielkopolskie", "localization": "Gostyń-Głogówko", "name": "Zespół klasztorny Kongregacji Oratorium św. Filipa Neri", "link1": "https://www.filipini.gostyn.pl/", "link2": "https://pl.wikipedia.org/wiki/Bazylika_na_%C5%9Awi%C4%99tej_G%C3%B3rze" }, "geometry": { "type": "Point", "coordinates": [ 17.03613, 51.8854 ] } },
{ "type": "Feature", "properties": { "voivodeship": "opolskie", "localization": "Góra Świętej Anny", "name": "Komponowany krajobraz kulturowo-przyrodniczy", "link1": "https://pl.wikipedia.org/wiki/G%C3%B3ra_%C5%9Awi%C4%99tej_Anny", "link2": "" }, "geometry": { "type": "Point", "coordinates": [ 18.1683, 50.45721 ] } },
{ "type": "Feature", "properties": { "voivodeship": "warmińsko-mazurskie", "localization": "Grunwald", "name": "Pole bitwy", "link1": "https://pl.wikipedia.org/wiki/Grunwald_%E2%80%93_Pole_Bitwy", "link2": "https://zabytek.pl/pl/obiekty/grunwald-grunwald-pole-bitwy" }, "geometry": { "type": "Point", "coordinates": [ 20.12418, 53.48649 ] } },
{ "type": "Feature", "properties": { "voivodeship": "podkarpackie", "localization": "Haczów n. Wisłokiem", "name": "Drewniany kościół późnogotycki", "link1": "https://pl.wikipedia.org/wiki/Ko%C5%9Bci%C3%B3%C5%82_Wniebowzi%C4%99cia_Naj%C5%9Bwi%C4%99tszej_Maryi_Panny_w_Haczowie", "link2": "https://zabytek.pl/pl/obiekty/haczow-kosciol-parafialny-pw-wniebowziecia-nmp-i-sw-michala-ar" }, "geometry": { "type": "Point", "coordinates": [ 21.89003, 49.67035 ] } },
{ "type": "Feature", "properties": { "voivodeship": "dolnośląskie", "localization": "Henryków n. Oławą", "name": "Pocysterski zespół klasztorny", "link1": "https://pl.wikipedia.org/wiki/Opactwo_Cysters%C3%B3w_w_Henrykowie", "link2": "" }, "geometry": { "type": "Point", "coordinates": [ 17.01376, 50.6528 ] } },
{ "type": "Feature", "properties": { "voivodeship": "podkarpackie", "localization": "Jarosław n. Sanem", "name": "Zabytkowy układ urbanistyczny", "link1": "https://zabytek.pl/pl/obiekty/jaroslaw-zespol-staromiejski", "link2": "" }, "geometry": { "type": "Point", "coordinates": [ 22.68389, 50.01861 ] } },
{ "type": "Feature", "properties": { "voivodeship": "dolnośląskie", "localization": "Jawor n. Nysą Szaloną", "name": "Barokowy, ewangelicki kościół Pokoju, drewniany, konstrukcji szkieletowej", "link1": "https://pl.wikipedia.org/wiki/Ko%C5%9Bci%C3%B3%C5%82_Pokoju_w_Jaworze", "link2": "http://kosciolpokojujawor.pl/" }, "geometry": { "type": "Point", "coordinates": [ 16.18911, 51.05393 ] } },
{ "type": "Feature", "properties": { "voivodeship": "małopolskie", "localization": "Kalwaria Zebrzydowska", "name": "Zespół kulturowo-krajobrazowy klasztoru i parku pielgrzymkowego", "link1": "https://zabytek.pl/pl/obiekty/kalwaria-zebrzydowska-kalwaria-zebrzydowska-manierystyczny-zesp", "link2": "https://zabytek.pl/pl/obiekty/kalwaria-zebrzydowska-kalwaria-krajobrazowy-zespol-manierystyczn" }, "geometry": { "type": "Point", "coordinates": [ 19.68064, 49.85966 ] } },
{ "type": "Feature", "properties": { "voivodeship": "zachodniopomorskie", "localization": "Kamień Pomorski", "name": "Zespół katedralny", "link1": "https://zabytek.pl/pl/obiekty/kamien-pomorski-kamien-pomorski-zespol-katedralny", "link2": "https://katedra-kamienpomorski.pl/" }, "geometry": { "type": "Point", "coordinates": [ 14.77261, 53.97323 ] } },
{ "type": "Feature", "properties": { "voivodeship": "śląskie", "localization": "Katowice", "name": "Osiedle robotnicze Nikiszowiec", "link1": "https://pl.wikipedia.org/wiki/Nikiszowiec", "link2": "https://zabytek.pl/pl/obiekty/katowice-katowice-osiedle-robotnicze-nikiszowiec" }, "geometry": { "type": "Point", "coordinates": [ 19.08119, 50.24328 ] } },
{ "type": "Feature", "properties": { "voivodeship": "lubelskie", "localization": "Kazimierz Dolny n. Wisłą", "name": "Staromiejski zespół architektoniczny", "link1": "https://zabytek.pl/pl/obiekty/kazimierz-dolny-kazimierz-dolny", "link2": "https://www.kazimierz-dolny.pl/" }, "geometry": { "type": "Point", "coordinates": [ 21.94745, 51.3221 ] } },
{ "type": "Feature", "properties": { "voivodeship": "świętokrzyskie", "localization": "Kielce", "name": "Pałac biskupów krakowskich (obecnie oddział Muzeum Narodowego)", "link1": "https://mnki.pl/palac/", "link2": "https://pl.wikipedia.org/wiki/Pa%C5%82ac_Biskup%C3%B3w_Krakowskich_w_Kielcach" }, "geometry": { "type": "Point", "coordinates": [ 20.62748, 50.86907 ] } },
{ "type": "Feature", "properties": { "voivodeship": "dolnośląskie", "localization": "Jelenia Góra - okolice", "name": "Pałace i parki krajobrazowe Kotliny Jeleniogórskiej", "link1": "https://zabytek.pl/pl/obiekty/palace-i-parki-krajobrazowe-kotliny-jeleniogorskiej", "link2": "https://www.karkonosze.pl/dolina-palacow-i-ogrodow-kotliny-jeleniogorskiej-pl" }, "geometry": { "type": "Point", "coordinates": [ 15.73435, 50.90307 ] } },
{ "type": "Feature", "properties": { "voivodeship": "lubelskie", "localization": "Kozłówka", "name": "Zespół pałacowo-parkowy", "link1": "https://www.muzeumzamoyskich.pl/", "link2": "https://zabytek.pl/pl/obiekty/kozlowka-kozlowka-zespol-palacowo-parkowy" }, "geometry": { "type": "Point", "coordinates": [ 22.48891, 51.45967 ] } },
{ "type": "Feature", "properties": { "voivodeship": "wielkopolskie", "localization": "Kórnik", "name": "Zespół zamkowo-parkowy wraz z kościołem parafialnym – nekropolią właścicieli", "link1": "https://zabytek.pl/pl/obiekty/kornik-kornik-zespol-zamkowo-parkowy-wraz-z-kosciolem-parafialny", "link2": "https://pl.wikipedia.org/wiki/K%C3%B3rnik" }, "geometry": { "type": "Point", "coordinates": [ 17.09086, 52.2439 ] } },
{ "type": "Feature", "properties": { "voivodeship": "małopolskie", "localization": "Kraków", "name": "Zabudowa Wzgórza Wawelskiego", "link1": "https://pl.wikipedia.org/wiki/Wawel", "link2": "https://krakow-przewodnik.com.pl/na-wawelu/wzgorze-zamkowe/historia-wzgorza/" }, "geometry": { "type": "Point", "coordinates": [ 19.93562, 50.05407 ] } },
{ "type": "Feature", "properties": { "voivodeship": "małopolskie", "localization": "Kraków", "name": "Zabudowa Śródmieścia", "link1": "", "link2": "" }, "geometry": { "type": "Point", "coordinates": [ 19.94494, 50.06462 ] } },
{ "type": "Feature", "properties": { "voivodeship": "małopolskie", "localization": "Kraków", "name": "Kościół Mariacki", "link1": "https://mariacki.com/", "link2": "https://pl.wikipedia.org/wiki/Ko%C5%9Bci%C3%B3%C5%82_archiprezbiterialny_Wniebowzi%C4%99cia_Naj%C5%9Bwi%C4%99tszej_Marii_Panny_w_Krakowie" }, "geometry": { "type": "Point", "coordinates": [ 19.93939, 50.06166 ] } },
{ "type": "Feature", "properties": { "voivodeship": "małopolskie", "localization": "Kraków", "name": "Sukiennice", "link1": "https://pl.wikipedia.org/wiki/Sukiennice_w_Krakowie", "link2": "https://zabytek.pl/pl/obiekty/krakow-sukiennice-2" }, "geometry": { "type": "Point", "coordinates": [ 19.93735, 50.06168 ] } },
{ "type": "Feature", "properties": { "voivodeship": "małopolskie", "localization": "Kraków", "name": "Kościół św. Anny przy ul. św. Anny", "link1": "https://kolegiata-anna.pl/", "link2": "https://pl.wikipedia.org/wiki/Kolegiata_%C5%9Bw._Anny_w_Krakowie" }, "geometry": { "type": "Point", "coordinates": [ 19.93356, 50.0624 ] } },
{ "type": "Feature", "properties": { "voivodeship": "małopolskie", "localization": "Kraków", "name": "Pozostałości obwarowań miejskich", "link1": "https://pl.wikipedia.org/wiki/Mury_miejskie_w_Krakowie", "link2": "https://wtir.awf.krakow.pl/pdf/rozne/trasy/bazy/mury/index.htm" }, "geometry": { "type": "Point", "coordinates": [ 19.94155, 50.0653 ] } },
{ "type": "Feature", "properties": { "voivodeship": "małopolskie", "localization": "Kraków", "name": "Zespół klasztorny jezuitów z kościołem pw. św. Piotra i Pawła przy ul. Grodzkiej", "link1": "https://apostolowie.pl/", "link2": "https://pl.wikipedia.org/wiki/Ko%C5%9Bci%C3%B3%C5%82_%C5%9Awi%C4%99tych_Aposto%C5%82%C3%B3w_Piotra_i_Paw%C5%82a_w_Krakowie" }, "geometry": { "type": "Point", "coordinates": [ 19.93906, 50.05692 ] } },
{ "type": "Feature", "properties": { "voivodeship": "małopolskie", "localization": "Kraków", "name": "Collegium Maius (obecnie Muzeum Uniwersytetu Jagiellońskiego)", "link1": "https://maius.uj.edu.pl/", "link2": "https://pl.wikipedia.org/wiki/Muzeum_Uniwersytetu_Jagiello%C5%84skiego" }, "geometry": { "type": "Point", "coordinates": [ 19.93378, 50.06146 ] } },
{ "type": "Feature", "properties": { "voivodeship": "małopolskie", "localization": "Kraków", "name": "Zespól klasztorny augustianów (kościół św. Katarzyny przy ul. Augustiańskiej)", "link1": "https://www.kazimierz.augustianie.pl/", "link2": "https://pl.wikipedia.org/wiki/Ko%C5%9Bci%C3%B3%C5%82_%C5%9Bw._Katarzyny_Aleksandryjskiej_i_%C5%9Bw._Ma%C5%82gorzaty_w_Krakowie" }, "geometry": { "type": "Point", "coordinates": [ 19.94109, 50.04943 ] } },
{ "type": "Feature", "properties": { "voivodeship": "małopolskie", "localization": "Kraków", "name": "Zespół klasztorny na Bielanach", "link1": "https://pl.wikipedia.org/wiki/Ko%C5%9Bci%C3%B3%C5%82_Wniebowzi%C4%99cia_Naj%C5%9Bwi%C4%99tszej_Maryi_Panny_w_Krakowie_(Bielany)", "link2": "https://visitmalopolska.pl/obiekt/-/poi/klasztor-kamedulow-na-bielanach-krakow" }, "geometry": { "type": "Point", "coordinates": [ 19.84035, 50.04577 ] } },
{ "type": "Feature", "properties": { "voivodeship": "podkarpackie", "localization": "Krasiczyn k. Przemyśla", "name": "Zamek Krasickich", "link1": "https://www.krasiczyn.com.pl/zamek", "link2": "https://pl.wikipedia.org/wiki/Zamek_w_Krasiczynie" }, "geometry": { "type": "Point", "coordinates": [ 22.64936, 49.77634 ] } },
{ "type": "Feature", "properties": { "voivodeship": "świętokrzyskie", "localization": "Krzemionki Opatowskie k. Ostrowca Świętokrzyskiego", "name": "Rezerwat archeologiczny", "link1": "https://muzeumostrowiec.pl/krzemionki/", "link2": "https://pl.wikipedia.org/wiki/Krzemionki" }, "geometry": { "type": "Point", "coordinates": [ 21.48996, 50.97225 ] } },
{ "type": "Feature", "properties": { "voivodeship": "dolnośląskie", "localization": "Krzeszów w Sudetach", "name": "Zespół opactwa cystersów", "link1": "https://opactwo.eu/", "link2": "https://pl.wikipedia.org/wiki/Pocysterskie_opactwo_w_Krzeszowie" }, "geometry": { "type": "Point", "coordinates": [ 16.06813, 50.73288 ] } },
{ "type": "Feature", "properties": { "voivodeship": "wielkopolskie", "localization": "Ląd n. Wartą", "name": "Zespół dawnego opactwa cystersów", "link1": "https://pl.wikipedia.org/wiki/Opactwo_Cysters%C3%B3w_w_L%C4%85dzie", "link2": "https://zabytek.pl/pl/obiekty/lad-zespol-dawnego-opactwa-cysterskiego-w-ladzie-nad-warta" }, "geometry": { "type": "Point", "coordinates": [ 17.89331, 52.2042 ] } },
{ "type": "Feature", "properties": { "voivodeship": "dolnośląskie", "localization": "Legnickie Pole", "name": "Zespół klasztorny benedyktynów", "link1": "https://zabytek.pl/pl/obiekty/legnickie-pole-legnickie-pole-pobenedyktynski-zespol-klasztorny", "link2": "https://legnickiepole.pl/dla-turysty/zabytki-i-atrakcje/" }, "geometry": { "type": "Point", "coordinates": [ 16.24261, 51.14525 ] } },
{ "type": "Feature", "properties": { "voivodeship": "podkarpackie", "localization": "Leżajsk", "name": "Klasztor bernardynów", "link1": "https://lezajsk.bernardyni.pl/", "link2": "https://pl.wikipedia.org/wiki/Zesp%C3%B3%C5%82_ko%C5%9Bcio%C5%82a_i_klasztoru_Bernardyn%C3%B3w_w_Le%C5%BCajsku" }, "geometry": { "type": "Point", "coordinates": [ 22.40902, 50.27059 ] } },
{ "type": "Feature", "properties": { "voivodeship": "warmińsko-mazurskie", "localization": "Lidzbark Warmiński", "name": "Zespół zamkowy", "link1": "https://zabytek.pl/pl/obiekty/lidzbark-warminski-zespol-zamku-biskupiego", "link2": "https://pl.wikipedia.org/wiki/Zamek_Biskup%C3%B3w_Warmi%C5%84skich_w_Lidzbarku_Warmi%C5%84skim" }, "geometry": { "type": "Point", "coordinates": [ 20.58326, 54.12541 ] } },
{ "type": "Feature", "properties": { "voivodeship": "małopolskie", "localization": "Lipnica Murowana k. Bochni", "name": "Późnogotycki drewniany kościół cmentarny pw. św. Leonarda", "link1": "https://pl.wikipedia.org/wiki/Ko%C5%9Bci%C3%B3%C5%82_%C5%9Bw._Leonarda_w_Lipnicy_Murowanej", "link2": "https://zabytek.pl/pl/obiekty/lipnica-dolna-kosciol-cmentarny-pw-sw-leonarda" }, "geometry": { "type": "Point", "coordinates": [ 20.53041, 49.86046 ] } },
{ "type": "Feature", "properties": { "voivodeship": "dolnośląskie", "localization": "Lubiąż n. Odrą", "name": "Zespół opactwa cystersów", "link1": "https://fundacjalubiaz.org.pl/", "link2": "https://pl.wikipedia.org/wiki/Opactwo_Cysters%C3%B3w_w_Lubi%C4%85%C5%BCu" }, "geometry": { "type": "Point", "coordinates": [ 16.46803, 51.26238 ] } },
{ "type": "Feature", "properties": { "voivodeship": "wielkopolskie", "localization": "Lubiń pow. Kościan", "name": "Zespół opactwa benedyktynów", "link1": "http://www.benedyktyni.net/", "link2": "https://zabytek.pl/pl/obiekty/lubin-lubin-zespol-opactwa-benedyktynow" }, "geometry": { "type": "Point", "coordinates": [ 16.90063, 51.96642 ] } },
{ "type": "Feature", "properties": { "voivodeship": "lubelskie", "localization": "Lublin", "name": "Kaplica pw. św. Trójcy na zamku", "link1": "https://zamek-lublin.pl/o-muzeum-mnl/kaplica-trojcy-swietej/", "link2": "https://pl.wikipedia.org/wiki/Kaplica_Tr%C3%B3jcy_%C5%9Awi%C4%99tej_w_Lublinie" }, "geometry": { "type": "Point", "coordinates": [ 22.57312, 51.25031 ] } },
{ "type": "Feature", "properties": { "voivodeship": "podkarpackie", "localization": "Łańcut", "name": "Zespół zamkowo-parkowy", "link1": "https://www.zamek-lancut.pl/", "link2": "https://pl.wikipedia.org/wiki/Zamek_w_%C5%81a%C5%84cucie" }, "geometry": { "type": "Point", "coordinates": [ 22.23344, 50.06844 ] } },
{ "type": "Feature", "properties": { "voivodeship": "lubuskie", "localization": "Łęknica nad Nysą Łużycką", "name": "Park Mużakowski", "link1": "https://pl.wikipedia.org/wiki/Park_Mu%C5%BCakowski", "link2": "https://www.polska.travel/park-muzakowski/" }, "geometry": { "type": "Point", "coordinates": [ 14.73399, 51.54597 ] } },
{ "type": "Feature", "properties": { "voivodeship": "pomorskie", "localization": "Malbork", "name": "Zamek krzyżacki", "link1": "https://zamek.malbork.pl/", "link2": "https://pl.wikipedia.org/wiki/Zamek_w_Malborku" }, "geometry": { "type": "Point", "coordinates": [ 19.02829, 54.0399 ] } },
{ "type": "Feature", "properties": { "voivodeship": "mazowieckie", "localization": "Maurzyce k. Łowicza", "name": "Zbudowany w 1927 r. na rzece Słudwi pierwszy w świecie spawany most drogowy", "link1": "https://pl.wikipedia.org/wiki/Most_spawany_w_Maurzycach", "link2": "https://zabytek.pl/pl/obiekty/maurzyce-spawany-most-stalowy-na-rzece-sludwi" }, "geometry": { "type": "Point", "coordinates": [ 19.8708, 52.13945 ] } },
{ "type": "Feature", "properties": { "voivodeship": "mazowieckie", "localization": "Nieborów k. Łowicza", "name": "Zbudowany w 1927 r. na rzece Słudwi pierwszy w świecie spawany most drogowy", "link1": "https://www.nieborow.art.pl/", "link2": "https://zabytek.pl/pl/obiekty/arkadia-nieborow-i-arkadia-zespol-palacowo-ogrodowy-i-ogrod" }, "geometry": { "type": "Point", "coordinates": [ 20.07015, 52.06677 ] } },
{ "type": "Feature", "properties": { "voivodeship": "opolskie", "localization": "Nysa", "name": "Zespół kościoła farnego pw. Św. Jakuba Starszego Apostoła i św. Agnieszki Dziewicy i Męczennicy", "link1": "https://pl.wikipedia.org/wiki/Bazylika_%C5%9Bw._Jakuba_i_%C5%9Bw._Agnieszki_w_Nysie", "link2": "https://zabytek.pl/pl/obiekty/nysa-nysa-zespol-kosciola-farnego-pod-wezwaniem-sw-jakuba-stars" }, "geometry": { "type": "Point", "coordinates": [ 17.33475, 50.47463 ] } },
{ "type": "Feature", "properties": { "voivodeship": "wielkopolskie", "localization": "Ostrów Lednicki", "name": "Ruiny palatium (zamku książęcego z X w.)", "link1": "https://lednicamuzeum.pl/strona,ostrow-lednicki-1.html", "link2": "https://pl.wikipedia.org/wiki/Ostr%C3%B3w_Lednicki" }, "geometry": { "type": "Point", "coordinates": [ 17.37778, 52.52695 ] } },
{ "type": "Feature", "properties": { "voivodeship": "małopolskie", "localization": "Oświęcim", "name": "Auschwitz-Birkenau niemiecki nazistowski obóz koncentracyjny i zagłady", "link1": "https://www.auschwitz.org/", "link2": "https://pl.wikipedia.org/wiki/Auschwitz-Birkenau" }, "geometry": { "type": "Point", "coordinates": [ 19.18089, 50.03447 ] } },
{ "type": "Feature", "properties": { "voivodeship": "opolskie", "localization": "Paczków", "name": "Średniowieczny układ urbanistyczny", "link1": "https://zabytek.pl/pl/obiekty/paczkow-paczkow-zespol-staromiejski-ze-sredniowiecznym-systemem", "link2": "https://pl.wikipedia.org/wiki/Fortyfikacje_Paczkowa" }, "geometry": { "type": "Point", "coordinates": [ 17.00607, 50.46412 ] } },
{ "type": "Feature", "properties": { "voivodeship": "łódzkie", "localization": "Podklasztorze k. Sulejowa", "name": "Zespół opactwa cystersów", "link1": "https://pl.wikipedia.org/wiki/Opactwo_Cysters%C3%B3w_w_Sulejowie", "link2": "https://www.zamkipolskie.com/sulejow/sulejow.html" }, "geometry": { "type": "Point", "coordinates": [ 19.87907, 51.36418 ] } },
{ "type": "Feature", "properties": { "voivodeship": "wielkopolskie", "localization": "Poznań", "name": "Kościół katedralny pw. św. Piotra i Pawła z pozostałościami kamiennej bazyliki przedromańskiej (Ostrów Tumski)", "link1": "https://www.katedra.archpoznan.pl/", "link2": "https://pl.wikipedia.org/wiki/Bazylika_archikatedralna_%C5%9Awi%C4%99tych_Aposto%C5%82%C3%B3w_Piotra_i_Paw%C5%82a_w_Poznaniu" }, "geometry": { "type": "Point", "coordinates": [ 16.9487, 52.41158 ] } },
{ "type": "Feature", "properties": { "voivodeship": "wielkopolskie", "localization": "Poznań", "name": "Kościół katedralny pw. św. Piotra i Pawła z pozostałościami kamiennej bazyliki przedromańskiej (Ostrów Tumski)", "link1": "https://www.katedra.archpoznan.pl/", "link2": "https://pl.wikipedia.org/wiki/Bazylika_archikatedralna_%C5%9Awi%C4%99tych_Aposto%C5%82%C3%B3w_Piotra_i_Paw%C5%82a_w_Poznaniu" }, "geometry": { "type": "Point", "coordinates": [ 16.9487, 52.41158 ] } },
{ "type": "Feature", "properties": { "voivodeship": "wielkopolskie", "localization": "Poznań", "name": "Ratusz Staromiejski (obecnie Muzeum Historii m. Poznania)", "link1": "https://mnp.art.pl/ratusz-muzeum-poznania", "link2": "https://pl.wikipedia.org/wiki/Ratusz_w_Poznaniu" }, "geometry": { "type": "Point", "coordinates": [ 16.93401, 52.40856 ] } },
{ "type": "Feature", "properties": { "voivodeship": "wielkopolskie", "localization": "Poznań", "name": "Pojezuicki kościół farny św. Stanisława przy ul. Gołębiej", "link1": "https://mnp.art.pl/ratusz-muzeum-poznania", "link2": "https://pl.wikipedia.org/wiki/Bazylika_Matki_Bo%C5%BCej_Nieustaj%C4%85cej_Pomocy,_%C5%9Bw._Marii_Magdaleny_i_%C5%9Bw._Stanis%C5%82awa_Biskupa_w_Poznaniu" }, "geometry": { "type": "Point", "coordinates": [ 16.9341, 52.40625 ] } },
{ "type": "Feature", "properties": { "voivodeship": "podkarpackie", "localization": "Przemyśl", "name": "Zespół urbanistyczny w obrębie dawnych murów miejskich", "link1": "https://zabytek.pl/pl/obiekty/przemysl-zespol-staromiejski", "link2": "" }, "geometry": { "type": "Point", "coordinates": [ 22.76928, 49.78242 ] } },
{ "type": "Feature", "properties": { "voivodeship": "śląskie", "localization": "Pszczyna", "name": "Pałac (dawny zamek gotycki; obecnie Muzeum Wnętrz)", "link1": "https://zamek-pszczyna.pl/", "link2": "https://pl.wikipedia.org/wiki/Zamek_w_Pszczynie" }, "geometry": { "type": "Point", "coordinates": [ 18.94044, 49.97821 ] } },
{ "type": "Feature", "properties": { "voivodeship": "małopolskie", "localization": "Racławice", "name": "Teren historycznej Bitwy Racławickiej", "link1": "https://zabytek.pl/pl/obiekty/raclawice-raclawice-teren-historycznej-bitwy-raclawickiej", "link2": "https://pl.wikipedia.org/wiki/Bitwa_pod_Rac%C5%82awicami" }, "geometry": { "type": "Point", "coordinates": [ 20.22256, 50.30613 ] } },
{ "type": "Feature", "properties": { "voivodeship": "kujawsko-pomorskie", "localization": "Radzyń Chełmiński", "name": "Zamek krzyżacki", "link1": "https://zamekradzyn.pl/", "link2": "https://pl.wikipedia.org/wiki/Zamek_w_Radzyniu_Che%C5%82mi%C5%84skim" }, "geometry": { "type": "Point", "coordinates": [ 18.93552, 53.3885 ] } },
{ "type": "Feature", "properties": { "voivodeship": "świętokrzyskie", "localization": "Sandomierz", "name": "Zabudowa Starego Miasta", "link1": "https://pl.wikipedia.org/wiki/Rynek_w_Sandomierzu", "link2": "https://turystyka.sandomierz.pl/atrakcje-sandomierza/stare-miasto-rynek-malownicze-uliczki" }, "geometry": { "type": "Point", "coordinates": [ 21.74953, 50.67933 ] } },
{ "type": "Feature", "properties": { "voivodeship": "świętokrzyskie", "localization": "Sandomierz", "name": "Kościół pw. św. Jakuba z klasztorem dominikanów", "link1": "https://sandomierz.dominikanie.pl/", "link2": "https://pl.wikipedia.org/wiki/Ko%C5%9Bci%C3%B3%C5%82_%C5%9Bw._Jakuba_w_Sandomierzu" }, "geometry": { "type": "Point", "coordinates": [ 21.74422, 50.67694 ] } },
{ "type": "Feature", "properties": { "voivodeship": "małopolskie", "localization": "Sękowa k. Gorlic", "name": "Późnogotycki drewniany kościół parafialny", "link1": "https://pl.wikipedia.org/wiki/Ko%C5%9Bci%C3%B3%C5%82_%C5%9Bw._Filipa_i_%C5%9Bw._Jakuba_w_S%C4%99kowej", "link2": "http://www.drewniana.malopolska.pl/?page=obiekty&id=173" }, "geometry": { "type": "Point", "coordinates": [ 21.18606, 49.63063 ] } },
{ "type": "Feature", "properties": { "voivodeship": "dolnośląskie", "localization": "Srebrna Góra", "name": "Twierdza srebrnogórska", "link1": "https://forty.pl/", "link2": "https://pl.wikipedia.org/wiki/Twierdza_Srebrna_G%C3%B3ra" }, "geometry": { "type": "Point", "coordinates": [ 16.64229, 50.57402 ] } },
{ "type": "Feature", "properties": { "voivodeship": "zachodniopomorskie", "localization": "Stargard Szczeciński", "name": "Twierdza srebrnogórska", "link1": "http://parafia.stargard.pl/", "link2": "https://pl.wikipedia.org/wiki/Kolegiata_Naj%C5%9Bwi%C4%99tszej_Maryi_Panny_Kr%C3%B3lowej_%C5%9Awiata_w_Stargardzie" }, "geometry": { "type": "Point", "coordinates": [ 15.04685, 53.3368 ] } },
{ "type": "Feature", "properties": { "voivodeship": "zachodniopomorskie", "localization": "Stargard Szczeciński", "name": "Średniowieczne mury obronne miasta", "link1": "https://zabytek.pl/pl/obiekty/stargard-mury-obronne", "link2": "https://pl.wikipedia.org/wiki/Mury_obronne_w_Stargardzie" }, "geometry": { "type": "Point", "coordinates": [ 15.04189, 53.33537 ] } },
{ "type": "Feature", "properties": { "voivodeship": "kujawsko-pomorskie", "localization": "Strzelno k. Inowrocławia", "name": "Zespół klasztorny norbertanek ", "link1": "https://zabytek.pl/pl/obiekty/strzelno-strzelno-zespol-dawnego-klasztoru-norbertanek", "link2": "https://medievalheritage.eu/pl/strona-glowna/zabytki/polska/strzelno/" }, "geometry": { "type": "Point", "coordinates": [ 18.17975, 52.62992 ] } },
{ "type": "Feature", "properties": { "voivodeship": "dolnośląskie", "localization": "Świdnica", "name": "Barokowy, ewangelicki kościół Pokoju, konstrukcji szkieletowej", "link1": "https://kosciolpokoju.pl/", "link2": "https://zabytek.pl/pl/obiekty/swidnica-kosciol-ewangelicki-pokoju" }, "geometry": { "type": "Point", "coordinates": [ 16.49167, 50.84649 ] } },
{ "type": "Feature", "properties": { "voivodeship": "śląskie", "localization": "Tarnowskie Góry", "name": "Sztolnia Czarnego Pstrąga", "link1": "https://kopalniasrebra.pl/", "link2": "https://pl.wikipedia.org/wiki/Sztolnia_Czarnego_Pstr%C4%85ga" }, "geometry": { "type": "Point", "coordinates": [ 18.80707, 50.427 ] } },
{ "type": "Feature", "properties": { "voivodeship": "śląskie", "localization": "Tarnowskie Góry", "name": "Podziemia zabytkowej kopalni rud srebronośnych", "link1": "https://kopalniasrebra.pl/", "link2": "https://pl.wikipedia.org/wiki/Zabytkowa_Kopalnia_Srebra" }, "geometry": { "type": "Point", "coordinates": [ 18.84956, 50.4256 ] } },
{ "type": "Feature", "properties": { "voivodeship": "kujawsko-pomorskie", "localization": "Toruń", "name": "Zabudowa Starego i Nowego Miasta", "link1": "https://zabytek.pl/pl/obiekty/torun-torun-stare-i-nowe-miasto", "link2": "http://www.odznaka.kuj-pom.bydgoszcz.pttk.pl/opisy/1d/torun.htm" }, "geometry": { "type": "Point", "coordinates": [ 18.60879, 53.01074 ] } },
{ "type": "Feature", "properties": { "voivodeship": "kujawsko-pomorskie", "localization": "Toruń", "name": "Ratusz Staromiejski", "link1": "https://muzeum.torun.pl/ratusz-staromiejski/", "link2": "https://pl.wikipedia.org/wiki/Ratusz_Staromiejski_w_Toruniu" }, "geometry": { "type": "Point", "coordinates": [ 18.60448, 53.01035 ] } },
{ "type": "Feature", "properties": { "voivodeship": "kujawsko-pomorskie", "localization": "Toruń", "name": "Kamienica pod Gwiazdą (obecnie Muzeum Okręgowe)", "link1": "https://muzeum.torun.pl/muzeum-sztuki-dalekiego-wschodu-w-kamienicy-pod-gwiazda/", "link2": "https://zabytek.pl/pl/obiekty/torun-kamienica-pod-gwiazda-ob-oddzial-muzeum-okregowego" }, "geometry": { "type": "Point", "coordinates": [ 18.60513, 53.01064 ] } },
{ "type": "Feature", "properties": { "voivodeship": "kujawsko-pomorskie", "localization": "Toruń", "name": "Bazylika pw. św. Jana Chrzciciela i św. Jana Ewangelisty", "link1": "https://zabytek.pl/pl/obiekty/torun-kosciol-par-pw-ss-jana-chrzciciela-i-jana-ewangelisty", "link2": "https://pl.wikipedia.org/wiki/Bazylika_katedralna_%C5%9Bw._Jana_Chrzciciela_i_%C5%9Bw._Jana_Ewangelisty_w_Toruniu" }, "geometry": { "type": "Point", "coordinates": [ 18.60625, 53.00937 ] } },
{ "type": "Feature", "properties": { "voivodeship": "kujawsko-pomorskie", "localization": "Toruń", "name": "Kościół pw. św. Jakuba", "link1": "https://zabytek.pl/pl/obiekty/torun-kosciol-par-pw-sw-jakuba-apostola", "link2": "https://pl.wikipedia.org/wiki/Ko%C5%9Bci%C3%B3%C5%82_%C5%9Bw._Jakuba_w_Toruniu" }, "geometry": { "type": "Point", "coordinates": [ 18.6126, 53.01188 ] } },
{ "type": "Feature", "properties": { "voivodeship": "kujawsko-pomorskie", "localization": "Toruń", "name": "Kościół pw. NMP", "link1": "https://zabytek.pl/pl/obiekty/torun-kosciol-klasztorny-franciszkanow-ob-par-pw-wniebowziec", "link2": "https://pl.wikipedia.org/wiki/Ko%C5%9Bci%C3%B3%C5%82_Wniebowzi%C4%99cia_Naj%C5%9Bwi%C4%99tszej_Marii_Panny_w_Toruniu" }, "geometry": { "type": "Point", "coordinates": [ 18.60234, 53.011 ] } },
{ "type": "Feature", "properties": { "voivodeship": "dolnośląskie", "localization": "Trzebnica", "name": "Zespół klasztorny cysterek", "link1": "https://zabytek.pl/pl/obiekty/trzebnica-trzebnica-zespol-dawnego-opactwa-cysterek", "link2": "https://bazylika-trzebnica.pl/" }, "geometry": { "type": "Point", "coordinates": [ 17.067, 51.30889 ] } },
{ "type": "Feature", "properties": { "voivodeship": "świętokrzyskie", "localization": "Ujazd k. Opatowa", "name": "Zamek Krzyżtopór", "link1": "https://krzyztopor.org.pl/zamek/index.php/pl/", "link2": "https://pl.wikipedia.org/wiki/Krzy%C5%BCtop%C3%B3r" }, "geometry": { "type": "Point", "coordinates": [ 21.31039, 50.71409 ] } },
{ "type": "Feature", "properties": { "voivodeship": "mazowieckie", "localization": "Warszawa", "name": "Stare Miasto", "link1": "https://warsawtour.pl/project/stare-miasto/", "link2": "https://pl.wikipedia.org/wiki/Stare_Miasto_w_Warszawie" }, "geometry": { "type": "Point", "coordinates": [ 21.01229, 52.24917 ] } },
{ "type": "Feature", "properties": { "voivodeship": "mazowieckie", "localization": "Warszawa", "name": "Zespół pałacowo-parkowy Łazienki", "link1": "https://www.lazienki-krolewskie.pl/pl", "link2": "https://pl.wikipedia.org/wiki/%C5%81azienki_Kr%C3%B3lewskie_w_Warszawie" }, "geometry": { "type": "Point", "coordinates": [ 21.03581, 52.21475 ] } },
{ "type": "Feature", "properties": { "voivodeship": "mazowieckie", "localization": "Warszawa", "name": "Zespół pałacowo-parkowy Wilanów", "link1": "https://www.wilanow-palac.pl/", "link2": "https://pl.wikipedia.org/wiki/Pa%C5%82ac_w_Wilanowie" }, "geometry": { "type": "Point", "coordinates": [ 21.09019, 52.16516 ] } },
{ "type": "Feature", "properties": { "voivodeship": "mazowieckie", "localization": "Warszawa", "name": "Zespół stacji filtrów Williama Lindleya", "link1": "https://zabytek.pl/pl/obiekty/warszawa-warszawa-zespol-stacji-filtrow-williama-lindleya", "link2": "https://pl.wikipedia.org/wiki/Zesp%C3%B3%C5%82_Stacji_Filtr%C3%B3w_w_Warszawie" }, "geometry": { "type": "Point", "coordinates": [ 20.99533, 52.22246 ] } },
{ "type": "Feature", "properties": { "voivodeship": "małopolskie", "localization": "Wiśnicz Nowy", "name": "Późnogotycki zespół zamkowy (obecnie muzeum)", "link1": "https://zamekwisnicz.pl/", "link2": "https://pl.wikipedia.org/wiki/Zamek_w_Wi%C5%9Bniczu" }, "geometry": { "type": "Point", "coordinates": [ 20.46939, 49.91728 ] } },
{ "type": "Feature", "properties": { "voivodeship": "małopolskie", "localization": "Wieliczka", "name": "Kopalnia soli", "link1": "https://www.kopalnia.pl/", "link2": "https://pl.wikipedia.org/wiki/Kopalnia_Soli_%E2%80%9EWieliczka%E2%80%9D" }, "geometry": { "type": "Point", "coordinates": [ 20.05617, 49.98344 ] } },
{ "type": "Feature", "properties": { "voivodeship": "dolnośląskie", "localization": "Wrocław", "name": "Katedra pw. św. Jana Chrzciciela", "link1": "https://katedra.wroclaw.pl/", "link2": "https://pl.wikipedia.org/wiki/Archikatedra_%C5%9Bw._Jana_Chrzciciela_we_Wroc%C5%82awiu" }, "geometry": { "type": "Point", "coordinates": [ 17.04666, 51.11419 ] } },
{ "type": "Feature", "properties": { "voivodeship": "dolnośląskie", "localization": "Wrocław", "name": "Ratusz Staromiejski", "link1": "https://visitwroclaw.eu/miejsce/ratusz-we-wroclawiu", "link2": "https://pl.wikipedia.org/wiki/Ratusz_we_Wroc%C5%82awiu" }, "geometry": { "type": "Point", "coordinates": [ 17.0321, 51.10959 ] } },
{ "type": "Feature", "properties": { "voivodeship": "dolnośląskie", "localization": "Wrocław", "name": "Hala Stulecia (Hala Ludowa)", "link1": "https://halastulecia.pl/", "link2": "https://pl.wikipedia.org/wiki/Hala_Stulecia_we_Wroc%C5%82awiu" }, "geometry": { "type": "Point", "coordinates": [ 17.07734, 51.10686 ] } },
{ "type": "Feature", "properties": { "voivodeship": "dolnośląskie", "localization": "Wrocław", "name": "Zespół zabudowy Ostrowa Tumskiego i Wyspy Piaskowej", "link1": "https://pl.wikipedia.org/wiki/Ostr%C3%B3w_Tumski_we_Wroc%C5%82awiu", "link2": "https://pl.wikipedia.org/wiki/Piasek_(wyspa)" }, "geometry": { "type": "Point", "coordinates": [ 17.04228, 51.11471 ] } },
{ "type": "Feature", "properties": { "voivodeship": "lubelskie", "localization": "Zamość", "name": "Zespół zabudowy miasta w granicach dawnej twierdzy", "link1": "https://zabytek.pl/pl/obiekty/zamosc-zamosc-historyczny-zespol-miasta-w-zasiegu-obwarowan-z-xi", "link2": "https://pl.wikipedia.org/wiki/Stare_Miasto_(Zamo%C5%9B%C4%87)" }, "geometry": { "type": "Point", "coordinates": [ 23.2526, 50.71706 ] } },
{ "type": "Feature", "properties": { "voivodeship": "lubelskie", "localization": "Zamość", "name": "Zespół zabudowy miasta w granicach dawnej twierdzy", "link1": "https://zabytek.pl/pl/obiekty/zamosc-zespol-kosciola-kolegiackiego-(ob-katedralnego)-pw-zmar", "link2": "https://pl.wikipedia.org/wiki/Katedra_Zmartwychwstania_Pa%C5%84skiego_i_%C5%9Bw._Tomasza_Aposto%C5%82a_w_Zamo%C5%9Bciu" }, "geometry": { "type": "Point", "coordinates": [ 23.25034, 50.71657 ] } },
{ "type": "Feature", "properties": { "voivodeship": "lubuskie", "localization": "Żagań", "name": "Poaugustiański zespół klasztorny", "link1": "https://zabytek.pl/pl/obiekty/zagan-zagan-poaugustianski-zespol-klasztorny", "link2": "https://urzadmiasta.zagan.pl/turystyka/zabytki/zespol-poklasztorny-augustianow/" }, "geometry": { "type": "Point", "coordinates": [ 15.31853, 51.61612 ] } },
{ "type": "Feature", "properties": { "voivodeship": "mazowieckie", "localization": "Żyrardów", "name": "Poaugustiański zespół klasztorny ", "link1": "https://zabytek.pl/pl/obiekty/zyrardow-zyrardow-xix-wieczna-osada-fabryczna-2", "link2": "https://www.zyrardow.pl/zabytki/" }, "geometry": { "type": "Point", "coordinates": [ 20.44597, 52.04868 ] } }
]
}
